[
  {
    "name": "8 Bit Bites — Bed-Stuy",
    "borough": "Brooklyn",
    "address": "967 Bedford Avenue, Brooklyn, NY 11205",
    "lat": 40.69109,
    "lng": -73.95537,
    "certified": false
  },
  {
    "name": "8 Bit Bites — Bushwick",
    "borough": "Brooklyn",
    "address": "881 Lexington Avenue, Brooklyn, NY 11221",
    "lat": 40.69055,
    "lng": -73.92645,
    "certified": false
  },
  {
    "name": "8 Bit Bites — Chelsea",
    "borough": "Manhattan",
    "address": "197 7th Avenue, New York, NY 10011",
    "lat": 40.74307,
    "lng": -73.99631,
    "certified": false
  },
  {
    "name": "8 Bit Bites — Court Street",
    "borough": "Brooklyn",
    "address": "113 Court Street, Brooklyn, NY 11201",
    "lat": 40.69056,
    "lng": -73.99187,
    "certified": false
  },
  {
    "name": "8 Bit Bites — East Village",
    "borough": "Manhattan",
    "address": "77 2nd Avenue, New York, NY 10003",
    "lat": 40.72652,
    "lng": -73.98927,
    "certified": false
  },
  {
    "name": "Atomic Wings",
    "borough": "Queens",
    "address": "159-23 Hillside Avenue, Jamaica, NY 11432",
    "lat": 40.70784,
    "lng": -73.80257,
    "certified": false
  },
  {
    "name": "Bahar Masala",
    "borough": "Brooklyn",
    "address": "984 Coney Island Avenue, Brooklyn, NY 11230",
    "lat": 40.63354,
    "lng": -73.96722,
    "certified": true
  },
  {
    "name": "Benny's Cuban Cafe",
    "borough": "Queens",
    "address": "71-28 Fresh Pond Road, Ridgewood, NY 11385",
    "lat": 40.70154,
    "lng": -73.89485,
    "certified": false
  },
  {
    "name": "Brain Food",
    "borough": "Brooklyn",
    "address": "111 Court Street, Brooklyn, NY 11201",
    "lat": 40.69062,
    "lng": -73.99184,
    "certified": true
  },
  {
    "name": "Chefscape",
    "borough": "Manhattan",
    "address": "10 Desbrosses Street, New York, NY 10013",
    "lat": 40.72339,
    "lng": -74.00852,
    "certified": false
  },
  {
    "name": "Collective Fare",
    "borough": "Brooklyn",
    "address": "345A Nostrand Avenue, Brooklyn, NY 11216",
    "lat": 40.68642,
    "lng": -73.9507,
    "certified": false
  },
  {
    "name": "Curry House",
    "borough": "Manhattan",
    "address": "9 Pell Street, New York, NY 10013",
    "lat": 40.71466,
    "lng": -73.99759,
    "certified": false
  },
  {
    "name": "Eleven Madison Park",
    "borough": "Manhattan",
    "address": "11 Madison Avenue, New York, NY 10010",
    "lat": 40.74155,
    "lng": -73.98742,
    "certified": false
  },
  {
    "name": "Estrella Latina",
    "borough": "Queens",
    "address": "39-07 104th Street, Corona, NY 11368",
    "lat": 40.75058,
    "lng": -73.86199,
    "certified": false
  },
  {
    "name": "Fiddler's Glatt",
    "borough": "Manhattan",
    "address": "500 Grand Street, New York, NY 10002",
    "lat": 40.81526,
    "lng": -73.94285,
    "certified": false
  },
  {
    "name": "Flavors Corner",
    "borough": "Queens",
    "address": "10-18 41st Avenue, Long Island City, NY 11101",
    "lat": 40.75543,
    "lng": -73.94538,
    "certified": false
  },
  {
    "name": "Fraiche",
    "borough": "Brooklyn",
    "address": "56 Marcy Avenue, Brooklyn, NY 11211",
    "lat": 40.7124,
    "lng": -73.95547,
    "certified": false
  },
  {
    "name": "Good Eats Bistro",
    "borough": "Queens",
    "address": "100-15 Ditmars Boulevard, East Elmhurst, NY 11369",
    "lat": 40.76985,
    "lng": -73.86992,
    "certified": false
  },
  {
    "name": "Havana Cafe",
    "borough": "Bronx",
    "address": "3151 East Tremont Avenue, Bronx, NY 10461",
    "lat": 40.83769,
    "lng": -73.8345,
    "certified": false
  },
  {
    "name": "Katie O's",
    "borough": "Brooklyn",
    "address": "452 East New York Avenue, Brooklyn, NY 11225",
    "lat": 40.66175,
    "lng": -73.94683,
    "certified": false
  },
  {
    "name": "Lebanese Eatery",
    "borough": "Staten Island",
    "address": "1686 Forest Avenue, Staten Island, NY 10302",
    "lat": 40.62491,
    "lng": -74.14513,
    "certified": false
  },
  {
    "name": "Lore",
    "borough": "Brooklyn",
    "address": "441 7th Avenue, Brooklyn, NY 11215",
    "lat": 40.66321,
    "lng": -73.98457,
    "certified": false
  },
  {
    "name": "Manna's Soul Food & Salad Bar",
    "borough": "Manhattan",
    "address": "320 Saint Nicholas Avenue, New York, NY 10027",
    "lat": 40.81127,
    "lng": -73.95214,
    "certified": true
  },
  {
    "name": "Marina Del Rey",
    "borough": "Bronx",
    "address": "1 Marina Drive, Bronx, NY 10465",
    "lat": 40.81454,
    "lng": -73.81479,
    "certified": false
  },
  {
    "name": "Marlow Bistro",
    "borough": "Manhattan",
    "address": "1018 Amsterdam Avenue, New York, NY 10025",
    "lat": 40.80295,
    "lng": -73.96396,
    "certified": true
  },
  {
    "name": "New Wing Wong",
    "borough": "Manhattan",
    "address": "42 Bowery, New York, NY 10013",
    "lat": 40.71544,
    "lng": -73.99663,
    "certified": false
  },
  {
    "name": "Radish",
    "borough": "Brooklyn",
    "address": "58 Dobbin Street, Brooklyn, NY 11222",
    "lat": 40.72419,
    "lng": -73.95395,
    "certified": false
  },
  {
    "name": "Ras Plant Based",
    "borough": "Brooklyn",
    "address": "739 Franklin Avenue, Brooklyn, NY 11238",
    "lat": 40.67344,
    "lng": -73.95689,
    "certified": false
  },
  {
    "name": "Rob's Kitchen",
    "borough": "Bronx",
    "address": "172 Lafayette Avenue, Bronx, NY 10473",
    "lat": 40.8407,
    "lng": -73.89977,
    "certified": true
  },
  {
    "name": "Sophie's Cuban — Flushing Ave",
    "borough": "Brooklyn",
    "address": "630 Flushing Avenue, Brooklyn, NY 11206",
    "lat": 40.69994,
    "lng": -73.9482,
    "certified": true
  },
  {
    "name": "Sophie's Cuban Cuisine — Flatiron",
    "borough": "Manhattan",
    "address": "664 6th Avenue, New York, NY 10010",
    "lat": 40.7413,
    "lng": -73.99388,
    "certified": false
  },
  {
    "name": "Sophie's Cuban Cuisine — Hell's Kitchen",
    "borough": "Manhattan",
    "address": "947 8th Avenue, New York, NY 10019",
    "lat": 40.76582,
    "lng": -73.98362,
    "certified": false
  },
  {
    "name": "Sophie's Cuban Cuisine — Midtown East",
    "borough": "Manhattan",
    "address": "369 Lexington Avenue, New York, NY 10017",
    "lat": 40.75058,
    "lng": -73.97659,
    "certified": false
  },
  {
    "name": "Sophie's Cuban Cuisine — Union Square",
    "borough": "Manhattan",
    "address": "28 East 12th Street, New York, NY 10003",
    "lat": 40.73399,
    "lng": -73.99312,
    "certified": false
  },
  {
    "name": "Zaab Zaab Talay",
    "borough": "Brooklyn",
    "address": "208 Grand Street, Brooklyn, NY 11211",
    "lat": 40.71398,
    "lng": -73.9602,
    "certified": true
  }
]
